{"type":"FeatureCollection", "features": [
{"type":"Feature","geometry":{"type":"Point","coordinates":[-77.02672388569192,-12.12842928109676,0]},"properties":{"name":"Oficina Lima La Paz 1049 Piso 4","styleUrl":"#msn_blue-pushpin10","icon-scale":1.1,"icon-offset":[20,2],"icon-offset-units":["pixels","pixels"],"icon":"http://maps.google.com/mapfiles/kml/pushpin/blue-pushpin.png"}},
{"type":"Feature","geometry":{"type":"Point","coordinates":[-78.5154133223565,-6.971489147615155,0]},"properties":{"name":"Talleres Mantenimiento Yanacocha Norte","styleUrl":"#msn_blue-pushpin10","icon-scale":1.1,"icon-offset":[20,2],"icon-offset-units":["pixels","pixels"],"icon":"http://maps.google.com/mapfiles/kml/pushpin/blue-pushpin.png"}},
{"type":"Feature","geometry":{"type":"Point","coordinates":[-78.56703465850748,-6.985967330636234,0]},"properties":{"name":"Garita Central Huandoy","styleUrl":"#m_ylw-pushpin2","icon-scale":1.1,"icon-offset":[20,2],"icon-offset-units":["pixels","pixels"],"icon":"http://maps.google.com/mapfiles/kml/pushpin/blue-pushpin.png"}},
{"type":"Feature","geometry":{"type":"Point","coordinates":[-78.56153184395616,-6.983802542239472,0]},"properties":{"name":"Planta de Carbon La Quinua","styleUrl":"#msn_blue-pushpin10","icon-scale":1.1,"icon-offset":[20,2],"icon-offset-units":["pixels","pixels"],"icon":"http://maps.google.com/mapfiles/kml/pushpin/blue-pushpin.png"}},
{"type":"Feature","geometry":{"type":"Point","coordinates":[-78.57025588161713,-6.982010066317508,0]},"properties":{"name":"Campamento Km 37","styleUrl":"#m_ylw-pushpin2","icon-scale":1.1,"icon-offset":[20,2],"icon-offset-units":["pixels","pixels"],"icon":"http://maps.google.com/mapfiles/kml/pushpin/blue-pushpin.png"}},
{"type":"Feature","geometry":{"type":"Point","coordinates":[-78.57778916887864,-6.986141433697244,0]},"properties":{"name":"Dique Rio Rejo","styleUrl":"#m_ylw-pushpin2","icon-scale":1.1,"icon-offset":[20,2],"icon-offset-units":["pixels","pixels"],"icon":"http://maps.google.com/mapfiles/kml/pushpin/blue-pushpin.png"}},
{"type":"Feature","geometry":{"type":"Point","coordinates":[-78.55161394513439,-6.990237528640078,0]},"properties":{"name":"Planta AWTP La Quinua","styleUrl":"#m_ylw-pushpin2","icon-scale":1.1,"icon-offset":[20,2],"icon-offset-units":["pixels","pixels"],"icon":"http://maps.google.com/mapfiles/kml/pushpin/blue-pushpin.png"}},
{"type":"Feature","geometry":{"type":"Point","coordinates":[-78.54950120008752,-6.98990714215326,0]},"properties":{"name":"Complex La Quinua","styleUrl":"#m_ylw-pushpin2","icon-scale":1.1,"icon-offset":[20,2],"icon-offset-units":["pixels","pixels"],"icon":"http://maps.google.com/mapfiles/kml/pushpin/blue-pushpin.png"}},
{"type":"Feature","geometry":{"type":"Point","coordinates":[-78.5501573980967,-6.990814098677725,0]},"properties":{"name":"Almacen Central La Quinua","styleUrl":"#msn_blue-pushpin7","icon-scale":1.1,"icon-offset":[20,2],"icon-offset-units":["pixels","pixels"],"icon":"http://maps.google.com/mapfiles/kml/pushpin/blue-pushpin.png"}},
{"type":"Feature","geometry":{"type":"Point","coordinates":[-78.5484401459745,-6.991991597791885,0]},"properties":{"name":"Laboratorio Central","styleUrl":"#msn_blue-pushpin10","icon-scale":1.1,"icon-offset":[20,2],"icon-offset-units":["pixels","pixels"],"icon":"http://maps.google.com/mapfiles/kml/pushpin/blue-pushpin.png"}},
{"type":"Feature","geometry":{"type":"Point","coordinates":[-78.54715185712203,-6.991066013889231,0]},"properties":{"name":"Planta GoldMill","styleUrl":"#m_ylw-pushpin2","icon-scale":1.1,"icon-offset":[20,2],"icon-offset-units":["pixels","pixels"],"icon":"http://maps.google.com/mapfiles/kml/pushpin/blue-pushpin.png"}},
{"type":"Feature","geometry":{"type":"Point","coordinates":[-78.54652510599209,-6.992544273761857,0]},"properties":{"name":"Ex Aglomeración","styleUrl":"#msn_blue-pushpin40","icon-scale":1.1,"icon-offset":[20,2],"icon-offset-units":["pixels","pixels"],"icon":"http://maps.google.com/mapfiles/kml/pushpin/blue-pushpin.png"}},
{"type":"Feature","geometry":{"type":"Point","coordinates":[-78.55109344324825,-6.992544833337464,0]},"properties":{"name":"Oficinas Lixiviación","styleUrl":"#msn_blue-pushpin40","icon-scale":1.1,"icon-offset":[20,2],"icon-offset-units":["pixels","pixels"],"icon":"http://maps.google.com/mapfiles/kml/pushpin/blue-pushpin.png"}},
{"type":"Feature","geometry":{"type":"Point","coordinates":[-78.54742813194964,-7.006648775029325,0]},"properties":{"name":"Estación de Monitoreo - HuaynaPicchu","styleUrl":"#msn_blue-pushpin7","icon-scale":1.1,"icon-offset":[20,2],"icon-offset-units":["pixels","pixels"],"icon":"http://maps.google.com/mapfiles/kml/pushpin/blue-pushpin.png"}},
{"type":"Feature","geometry":{"type":"Point","coordinates":[-78.55178312333254,-6.996710335502543,0]},"properties":{"name":"Sub Estación la Pajuela","styleUrl":"#msn_blue-pushpin10","icon-scale":1.1,"icon-offset":[20,2],"icon-offset-units":["pixels","pixels"],"icon":"http://maps.google.com/mapfiles/kml/pushpin/blue-pushpin.png"}},
{"type":"Feature","geometry":{"type":"Point","coordinates":[-78.53433387032875,-6.965948345391307,0]},"properties":{"name":"Planta Yanacocha Norte","styleUrl":"#msn_blue-pushpin100","icon-scale":1.1,"icon-offset":[20,2],"icon-offset-units":["pixels","pixels"],"icon":"http://maps.google.com/mapfiles/kml/pushpin/blue-pushpin.png"}},
{"type":"Feature","geometry":{"type":"Point","coordinates":[-78.53568240015656,-6.965873308096645,0]},"properties":{"name":"Oficinas Seguridad","styleUrl":"#msn_blue-pushpin10","icon-scale":1.1,"icon-offset":[20,2],"icon-offset-units":["pixels","pixels"],"icon":"http://maps.google.com/mapfiles/kml/pushpin/blue-pushpin.png"}},
{"type":"Feature","geometry":{"type":"Point","coordinates":[-78.50775522345555,-6.96637495247241,0]},"properties":{"name":"Cancha de Nitrato","styleUrl":"#msn_blue-pushpin100","icon-scale":1.1,"icon-offset":[20,2],"icon-offset-units":["pixels","pixels"],"icon":"http://maps.google.com/mapfiles/kml/pushpin/blue-pushpin.png"}},
{"type":"Feature","geometry":{"type":"Point","coordinates":[-78.50581752236927,-6.969840463303061,0]},"properties":{"name":"Planta de Cal - Plataforma B","styleUrl":"#msn_blue-pushpin100","icon-scale":1.1,"icon-offset":[20,2],"icon-offset-units":["pixels","pixels"],"icon":"http://maps.google.com/mapfiles/kml/pushpin/blue-pushpin.png"}},
{"type":"Feature","geometry":{"type":"Point","coordinates":[-78.49985807566247,-6.98148921791284,0]},"properties":{"name":"Planta Pampa Larga","styleUrl":"#msn_blue-pushpin5","icon-scale":1.1,"icon-offset":[20,2],"icon-offset-units":["pixels","pixels"],"icon":"http://maps.google.com/mapfiles/kml/pushpin/blue-pushpin.png"}},
{"type":"Feature","geometry":{"type":"Point","coordinates":[-78.4771088050477,-6.971193217207797,0]},"properties":{"name":"Campamento Km 52","styleUrl":"#msn_blue-pushpin12","icon-scale":1.1,"icon-offset":[20,2],"icon-offset-units":["pixels","pixels"],"icon":"http://maps.google.com/mapfiles/kml/pushpin/blue-pushpin.png"}},
{"type":"Feature","geometry":{"type":"Point","coordinates":[-78.4638344284816,-6.961271055714266,0]},"properties":{"name":"Garita Pongo","styleUrl":"#msn_blue-pushpin4","icon-scale":1.1,"icon-offset":[20,2],"icon-offset-units":["pixels","pixels"],"icon":"http://maps.google.com/mapfiles/kml/pushpin/blue-pushpin.png"}},
{"type":"Feature","geometry":{"type":"Point","coordinates":[-78.46886384489599,-6.970906609404494,0]},"properties":{"name":"Planta Maqui Maqui","styleUrl":"#msn_blue-pushpin20","icon-scale":1.1,"icon-offset":[20,2],"icon-offset-units":["pixels","pixels"],"icon":"http://maps.google.com/mapfiles/kml/pushpin/blue-pushpin.png"}},
{"type":"Feature","geometry":{"type":"Point","coordinates":[-78.47165018384496,-6.927340048752274,0]},"properties":{"name":"Planta de Cal China Linda","styleUrl":"#msn_blue-pushpin20","icon-scale":1.1,"icon-offset":[20,2],"icon-offset-units":["pixels","pixels"],"icon":"http://maps.google.com/mapfiles/kml/pushpin/blue-pushpin.png"}},
{"type":"Feature","geometry":{"type":"Point","coordinates":[-78.37930168304887,-6.955696609992238,0]},"properties":{"name":"Contenedor Reservorio Chailhuagon","styleUrl":"#msn_blue-pushpin20","icon-scale":1.1,"icon-offset":[20,2],"icon-offset-units":["pixels","pixels"],"icon":"http://maps.google.com/mapfiles/kml/pushpin/blue-pushpin.png"}},
{"type":"Feature","geometry":{"type":"Point","coordinates":[-78.3820840863493,-6.95829304356911,0]},"properties":{"name":"Campamento San Nicolas","styleUrl":"#msn_blue-pushpin20","icon-scale":1.1,"icon-offset":[20,2],"icon-offset-units":["pixels","pixels"],"icon":"http://maps.google.com/mapfiles/kml/pushpin/blue-pushpin.png"}},
{"type":"Feature","geometry":{"type":"Point","coordinates":[-78.48899858138641,-7.185883026381911,0]},"properties":{"name":"Oficinas Eucaliptos Cajamarca","styleUrl":"#msn_blue-pushpin7","icon-scale":1.1,"icon-offset":[20,2],"icon-offset-units":["pixels","pixels"],"icon":"http://maps.google.com/mapfiles/kml/pushpin/blue-pushpin.png"}},
{"type":"Feature","geometry":{"type":"Point","coordinates":[-78.46381831843372,-7.16605975708138,0]},"properties":{"name":"Centro de Control de Seguridad - Casa 9","styleUrl":"#msn_blue-pushpin00","icon-scale":1.1,"icon-offset":[20,2],"icon-offset-units":["pixels","pixels"],"icon":"http://maps.google.com/mapfiles/kml/pushpin/blue-pushpin.png"}},
{"type":"Feature","geometry":{"type":"Point","coordinates":[-78.54778352176609,-6.978460717339956,0]},"properties":{"name":"Estación de Residuos Km 39","styleUrl":"#msn_blue-pushpin30","icon-scale":1.1,"icon-offset":[20,2],"icon-offset-units":["pixels","pixels"],"icon":"http://maps.google.com/mapfiles/kml/pushpin/blue-pushpin.png"}},
{"type":"Feature","geometry":{"type":"Point","coordinates":[-78.48517096872801,-6.999594381569,0]},"properties":{"name":"Proyecto Chaquicocha Underground","styleUrl":"#msn_blue-pushpin11","icon-scale":1.1,"icon-offset":[20,2],"icon-offset-units":["pixels","pixels"],"icon":"http://maps.google.com/mapfiles/kml/pushpin/blue-pushpin.png"}},
{"type":"Feature","geometry":{"type":"Point","coordinates":[-78.50570745804006,-7.007968831754305,0]},"properties":{"name":"Reservorio San José","styleUrl":"#msn_blue-pushpin3","icon-scale":1.1,"icon-offset":[20,2],"icon-offset-units":["pixels","pixels"],"icon":"http://maps.google.com/mapfiles/kml/pushpin/blue-pushpin.png"}},
{"type":"Feature","geometry":{"type":"Point","coordinates":[-78.48775778979525,-6.987249335922986,0]},"properties":{"name":"Mirador Bicentenario","styleUrl":"#msn_blue-pushpin0","icon-scale":1.1,"icon-offset":[20,2],"icon-offset-units":["pixels","pixels"],"icon":"http://maps.google.com/mapfiles/kml/pushpin/blue-pushpin.png"}},
{"type":"Feature","geometry":{"type":"Point","coordinates":[-78.53770900938021,-7.043142732494743,0]},"properties":{"name":"Dique Río Grande","styleUrl":"#msn_blue-pushpin0","icon-scale":1.1,"icon-offset":[20,2],"icon-offset-units":["pixels","pixels"],"icon":"http://maps.google.com/mapfiles/kml/pushpin/blue-pushpin.png"}},
{"type":"Feature","geometry":{"type":"Point","coordinates":[-78.46822587246771,-6.971484371396048,0]},"properties":{"name":"MCC Planta Maqui Maqui","styleUrl":"#msn_blue-pushpin2","icon-scale":1.1,"icon-offset":[20,2],"icon-offset-units":["pixels","pixels"],"icon":"http://maps.google.com/mapfiles/kml/pushpin/blue-pushpin.png"}},
{"type":"Feature","geometry":{"type":"Point","coordinates":[-78.52018352523947,-6.97931863045484,0]},"properties":{"name":"Viejo Oeste - Supply Chain","styleUrl":"#msn_blue-pushpin2","icon-scale":1.1,"icon-offset":[20,2],"icon-offset-units":["pixels","pixels"],"icon":"http://maps.google.com/mapfiles/kml/pushpin/blue-pushpin.png"}},
{"type":"Feature","geometry":{"type":"Point","coordinates":[-78.47753164879965,-6.970210167533377,0]},"properties":{"name":"Oficinas Administrativas Km 52","description":"Data Center Piso 1 y Data Center Piso 2","styleUrl":"#msn_blue-pushpin","icon-scale":1.1,"icon-offset":[20,2],"icon-offset-units":["pixels","pixels"],"icon":"http://maps.google.com/mapfiles/kml/pushpin/blue-pushpin.png"}},
{"type":"Feature","geometry":{"type":"Point","coordinates":[-78.47833239191547,-6.970656773933854,0]},"properties":{"name":"Sala de Logueo","styleUrl":"#msn_blue-pushpin","icon-scale":1.1,"icon-offset":[20,2],"icon-offset-units":["pixels","pixels"],"icon":"http://maps.google.com/mapfiles/kml/pushpin/blue-pushpin.png"}},
{"type":"Feature","geometry":{"type":"Point","coordinates":[-78.47836201665407,-6.972165989202943,0]},"properties":{"name":"UMY Km 52","styleUrl":"#msn_blue-pushpin","icon-scale":1.1,"icon-offset":[20,2],"icon-offset-units":["pixels","pixels"],"icon":"http://maps.google.com/mapfiles/kml/pushpin/blue-pushpin.png"}},
{"type":"Feature","geometry":{"type":"Point","coordinates":[-78.57044402994367,-6.982349766632452,0]},"properties":{"name":"Oficinas Comedor","styleUrl":"#msn_blue-pushpin10","icon-scale":1.1,"icon-offset":[20,2],"icon-offset-units":["pixels","pixels"],"icon":"http://maps.google.com/mapfiles/kml/pushpin/blue-pushpin.png"}},
{"type":"Feature","geometry":{"type":"Point","coordinates":[-78.5711297440017,-6.981773370357532,0]},"properties":{"name":"Oficinas RRHH y SSGG","styleUrl":"#msn_blue-pushpin","icon-scale":1.1,"icon-offset":[20,2],"icon-offset-units":["pixels","pixels"],"icon":"http://maps.google.com/mapfiles/kml/pushpin/blue-pushpin.png"}},
{"type":"Feature","geometry":{"type":"Point","coordinates":[-78.56977046100232,-6.982115525205696,0]},"properties":{"name":"UMY Camp. Km 37","styleUrl":"#msn_blue-pushpin","icon-scale":1.1,"icon-offset":[20,2],"icon-offset-units":["pixels","pixels"],"icon":"http://maps.google.com/mapfiles/kml/pushpin/blue-pushpin.png"}},
{"type":"Feature","geometry":{"type":"Point","coordinates":[-78.56668097376455,-6.986340852028547,0]},"properties":{"name":"Balanza Huandoy","styleUrl":"#msn_blue-pushpin","icon-scale":1.1,"icon-offset":[20,2],"icon-offset-units":["pixels","pixels"],"icon":"http://maps.google.com/mapfiles/kml/pushpin/blue-pushpin.png"}},
{"type":"Feature","geometry":{"type":"Point","coordinates":[-78.54848186376356,-7.003346598949598,0]},"properties":{"name":"Sara II","styleUrl":"#msn_blue-pushpin","icon-scale":1.1,"icon-offset":[20,2],"icon-offset-units":["pixels","pixels"],"icon":"http://maps.google.com/mapfiles/kml/pushpin/blue-pushpin.png"}},
{"type":"Feature","geometry":{"type":"Point","coordinates":[-78.5397611624237,-7.01415883497924,0]},"properties":{"name":"Gravas Sur","styleUrl":"#msn_blue-pushpin","icon-scale":1.1,"icon-offset":[20,2],"icon-offset-units":["pixels","pixels"],"icon":"http://maps.google.com/mapfiles/kml/pushpin/blue-pushpin.png"}},
{"type":"Feature","geometry":{"type":"Point","coordinates":[-77.1296387528094,-12.02236994297974,0]},"properties":{"name":"Ransa Callao","styleUrl":"#msn_blue-pushpin10","icon-scale":1.1,"icon-offset":[20,2],"icon-offset-units":["pixels","pixels"],"icon":"http://maps.google.com/mapfiles/kml/pushpin/blue-pushpin.png"}},
{"type":"Feature","geometry":{"type":"Point","coordinates":[-78.51526262198158,-7.14517771737634,0]},"properties":{"name":"Paradero Central Minera Yanacocha","styleUrl":"#msn_blue-pushpin10","icon-scale":1.1,"icon-offset":[20,2],"icon-offset-units":["pixels","pixels"],"icon":"http://maps.google.com/mapfiles/kml/pushpin/blue-pushpin.png"}},
{"type":"Feature","geometry":{"type":"Point","coordinates":[-78.49794919402173,-7.162898972904322,0]},"properties":{"name":"Centro de Información y Cultura Cajamarca","styleUrl":"#msn_blue-pushpin10","icon-scale":1.1,"icon-offset":[20,2],"icon-offset-units":["pixels","pixels"],"icon":"http://maps.google.com/mapfiles/kml/pushpin/blue-pushpin.png"}},
{"type":"Feature","geometry":{"type":"Point","coordinates":[-78.59951513022315,-7.048662587299028,0]},"properties":{"name":"Policia Nacional del Perú","styleUrl":"#msn_blue-pushpin10","icon-scale":1.1,"icon-offset":[20,2],"icon-offset-units":["pixels","pixels"],"icon":"http://maps.google.com/mapfiles/kml/pushpin/blue-pushpin.png"}},
{"type":"Feature","geometry":{"type":"Point","coordinates":[-78.60014087327944,-7.047635162612167,0]},"properties":{"name":"Logistica KM 24","styleUrl":"#msn_blue-pushpin10","icon-scale":1.1,"icon-offset":[20,2],"icon-offset-units":["pixels","pixels"],"icon":"http://maps.google.com/mapfiles/kml/pushpin/blue-pushpin.png"}},
{"type":"Feature","geometry":{"type":"Point","coordinates":[-78.54914072226663,-6.990346344738025,0]},"properties":{"name":"Comedor La Quinua","styleUrl":"#msn_blue-pushpin10","icon-scale":1.1,"icon-offset":[20,2],"icon-offset-units":["pixels","pixels"],"icon":"http://maps.google.com/mapfiles/kml/pushpin/blue-pushpin.png"}},
{"type":"Feature","geometry":{"type":"Point","coordinates":[-78.54903957975924,-6.990588155427026,0]},"properties":{"name":"UMY La Quinua","styleUrl":"#msn_blue-pushpin10","icon-scale":1.1,"icon-offset":[20,2],"icon-offset-units":["pixels","pixels"],"icon":"http://maps.google.com/mapfiles/kml/pushpin/blue-pushpin.png"}},
{"type":"Feature","geometry":{"type":"Point","coordinates":[-78.5492669528028,-6.990448152795979,0]},"properties":{"name":"Oficina SSGG La Quinua","styleUrl":"#msn_blue-pushpin10","icon-scale":1.1,"icon-offset":[20,2],"icon-offset-units":["pixels","pixels"],"icon":"http://maps.google.com/mapfiles/kml/pushpin/blue-pushpin.png"}},
{"type":"Feature","geometry":{"type":"Point","coordinates":[-78.54878832700159,-6.989531058275793,0]},"properties":{"name":"Serpentin La Quinua","styleUrl":"#msn_blue-pushpin10","icon-scale":1.1,"icon-offset":[20,2],"icon-offset-units":["pixels","pixels"],"icon":"http://maps.google.com/mapfiles/kml/pushpin/blue-pushpin.png"}},
{"type":"Feature","geometry":{"type":"Point","coordinates":[-78.5496042028291,-6.991065114054772,0]},"properties":{"name":"Garita Almacén Central","styleUrl":"#msn_blue-pushpin10","icon-scale":1.1,"icon-offset":[20,2],"icon-offset-units":["pixels","pixels"],"icon":"http://maps.google.com/mapfiles/kml/pushpin/blue-pushpin.png"}},
{"type":"Feature","geometry":{"type":"Point","coordinates":[-78.54822605731016,-6.992413855655692,0]},"properties":{"name":"Garita de Control Laboratorio","styleUrl":"#msn_blue-pushpin10","icon-scale":1.1,"icon-offset":[20,2],"icon-offset-units":["pixels","pixels"],"icon":"http://maps.google.com/mapfiles/kml/pushpin/blue-pushpin.png"}},
{"type":"Feature","geometry":{"type":"Point","coordinates":[-78.54774690216045,-6.990980112085852,0]},"properties":{"name":"Control Room Gold Mill","styleUrl":"#msn_blue-pushpin10","icon-scale":1.1,"icon-offset":[20,2],"icon-offset-units":["pixels","pixels"],"icon":"http://maps.google.com/mapfiles/kml/pushpin/blue-pushpin.png"}},
{"type":"Feature","geometry":{"type":"Point","coordinates":[-78.47896259555145,-6.975456825066534,0]},"properties":{"name":"Planta de Aguas Km 52","styleUrl":"#msn_blue-pushpin10","icon-scale":1.1,"icon-offset":[20,2],"icon-offset-units":["pixels","pixels"],"icon":"http://maps.google.com/mapfiles/kml/pushpin/blue-pushpin.png"}},
{"type":"Feature","geometry":{"type":"Point","coordinates":[-78.48126890272313,-6.993772005615194,0]},"properties":{"name":"Plataforma Húascar camiones","styleUrl":"#msn_blue-pushpin10","icon-scale":1.1,"icon-offset":[20,2],"icon-offset-units":["pixels","pixels"],"icon":"http://maps.google.com/mapfiles/kml/pushpin/blue-pushpin.png"}},
{"type":"Feature","geometry":{"type":"Point","coordinates":[-78.48035998119876,-6.993274165627255,0]},"properties":{"name":"Plataforma Húascar Palas","styleUrl":"#msn_blue-pushpin10","icon-scale":1.1,"icon-offset":[20,2],"icon-offset-units":["pixels","pixels"],"icon":"http://maps.google.com/mapfiles/kml/pushpin/blue-pushpin.png"}},
{"type":"Feature","geometry":{"type":"Point","coordinates":[-78.54667257553959,-6.992199679040034,0]},"properties":{"name":"Garita Planta Gold Mill","styleUrl":"#msn_blue-pushpin10","icon-scale":1.1,"icon-offset":[20,2],"icon-offset-units":["pixels","pixels"],"icon":"http://maps.google.com/mapfiles/kml/pushpin/blue-pushpin.png"}},
{"type":"Feature","geometry":{"type":"Point","coordinates":[-78.56970673837817,-6.982277777777778,0]},"properties":{"name":"Recepción Campamento","styleUrl":"#msn_blue-pushpin10","icon-scale":1.1,"icon-offset":[20,2],"icon-offset-units":["pixels","pixels"],"icon":"http://maps.google.com/mapfiles/kml/pushpin/blue-pushpin.png"}},
{"type":"Feature","geometry":{"type":"Point","coordinates":[-78.56946156458056,-6.982497441207448,0]},"properties":{"name":"Garita KM 37","styleUrl":"#msn_blue-pushpin10","icon-scale":1.1,"icon-offset":[20,2],"icon-offset-units":["pixels","pixels"],"icon":"http://maps.google.com/mapfiles/kml/pushpin/blue-pushpin.png"}},
{"type":"Feature","geometry":{"type":"Point","coordinates":[-78.57105116093604,-6.982002508662015,0]},"properties":{"name":"Auditorio","styleUrl":"#msn_blue-pushpin10","icon-scale":1.1,"icon-offset":[20,2],"icon-offset-units":["pixels","pixels"],"icon":"http://maps.google.com/mapfiles/kml/pushpin/blue-pushpin.png"}},
{"type":"Feature","geometry":{"type":"Point","coordinates":[-78.56089064168606,-6.982855010084823,0]},"properties":{"name":"Oficina administrativa","styleUrl":"#msn_blue-pushpin10","icon-scale":1.1,"icon-offset":[20,2],"icon-offset-units":["pixels","pixels"],"icon":"http://maps.google.com/mapfiles/kml/pushpin/blue-pushpin.png"}},
{"type":"Feature","geometry":{"type":"Point","coordinates":[-78.56068486945064,-6.982884759151265,0]},"properties":{"name":"Taller de Mantenimiento","styleUrl":"#msn_blue-pushpin10","icon-scale":1.1,"icon-offset":[20,2],"icon-offset-units":["pixels","pixels"],"icon":"http://maps.google.com/mapfiles/kml/pushpin/blue-pushpin.png"}},
{"type":"Feature","geometry":{"type":"Point","coordinates":[-78.5605856258134,-6.983389638204312,0]},"properties":{"name":"Cuarto de energía","styleUrl":"#msn_blue-pushpin10","icon-scale":1.1,"icon-offset":[20,2],"icon-offset-units":["pixels","pixels"],"icon":"http://maps.google.com/mapfiles/kml/pushpin/blue-pushpin.png"}},
{"type":"Feature","geometry":{"type":"Point","coordinates":[-78.54484872635682,-6.990926734681341,0]},"properties":{"name":"Oficina Ex Gold Mill","description":"Oficina compartida entre personal del proyecto WTP - Yanacocha y Bechtell.\nAproximadamente se tienen 12 usuarios de WTP - Yanacocha a los que se les debe brindar soporte.\nSe tienen 2 salas de reuniones sin equipos de VC\nSe tiene 1 sala de reuniones con equipo de VC marca Cisco, modelo ABC\nSe tienen 2 MFP a color modelos, soportados por PBS, contacto Antony celular 123456787\nSe tienen 5 APs instalados que cubren toda la zona central de la oficina, donde esta personal de WTP.\nNo se tiene Poppulo\nSe tienen 5 oficinas implementadas con los siguientes accesorios principales: monitores de 38\"\nSe tienen 10 módulos disponibles, 3 con monitor de 27\" y 5 con monitores de 38\"\nLa persona considerada como contacto principal en esta oficina es: Joana Tello, asistente de PdP\nLos principales usuarios de esta oficina son: Maria Adrianze y Goyito\nEl regimen de trabajo en esta oficina es de 14 x 7\n\n\n----\n\nTiempo de traslado desde el Complex: 10 minutos\n\n------\n\nLa oficina mas cercana de IT GoldBar esta en El Complex","styleUrl":"#msn_blue-pushpin1","icon-scale":1.1,"icon-offset":[20,2],"icon-offset-units":["pixels","pixels"],"icon":"http://maps.google.com/mapfiles/kml/pushpin/blue-pushpin.png"}},
{"type":"Feature","geometry":{"type":"Point","coordinates":[-78.5346129741391,-6.965108403980707,0]},"properties":{"name":"Control de Acceso","styleUrl":"#msn_blue-pushpin10","icon-scale":1.1,"icon-offset":[20,2],"icon-offset-units":["pixels","pixels"],"icon":"http://maps.google.com/mapfiles/kml/pushpin/blue-pushpin.png"}},
{"type":"Feature","geometry":{"type":"Point","coordinates":[-78.53399214353082,-6.964786782481345,0]},"properties":{"name":"Barracas Seguridad","styleUrl":"#msn_blue-pushpin10","icon-scale":1.1,"icon-offset":[20,2],"icon-offset-units":["pixels","pixels"],"icon":"http://maps.google.com/mapfiles/kml/pushpin/blue-pushpin.png"}},
{"type":"Feature","geometry":{"type":"Point","coordinates":[-78.53389862276002,-6.965079237862246,0]},"properties":{"name":"Grifo Yanacocha Norte","styleUrl":"#msn_blue-pushpin10","icon-scale":1.1,"icon-offset":[20,2],"icon-offset-units":["pixels","pixels"],"icon":"http://maps.google.com/mapfiles/kml/pushpin/blue-pushpin.png"}},
{"type":"Feature","geometry":{"type":"Point","coordinates":[-78.53471902441879,-6.965323252734274,0]},"properties":{"name":"Oficinas Adm y Taller","styleUrl":"#msn_blue-pushpin10","icon-scale":1.1,"icon-offset":[20,2],"icon-offset-units":["pixels","pixels"],"icon":"http://maps.google.com/mapfiles/kml/pushpin/blue-pushpin.png"}},
{"type":"Feature","geometry":{"type":"Point","coordinates":[-78.53393609181882,-6.966223187405922,0]},"properties":{"name":"Control Room","styleUrl":"#msn_blue-pushpin10","icon-scale":1.1,"icon-offset":[20,2],"icon-offset-units":["pixels","pixels"],"icon":"http://maps.google.com/mapfiles/kml/pushpin/blue-pushpin.png"}},
{"type":"Feature","geometry":{"type":"Point","coordinates":[-78.51537561400409,-6.969814173004514,0]},"properties":{"name":"T1","styleUrl":"#msn_blue-pushpin10","icon-scale":1.1,"icon-offset":[20,2],"icon-offset-units":["pixels","pixels"],"icon":"http://maps.google.com/mapfiles/kml/pushpin/blue-pushpin.png"}},
{"type":"Feature","geometry":{"type":"Point","coordinates":[-78.5149634197244,-6.969993543798289,0]},"properties":{"name":"T2","styleUrl":"#msn_blue-pushpin10","icon-scale":1.1,"icon-offset":[20,2],"icon-offset-units":["pixels","pixels"],"icon":"http://maps.google.com/mapfiles/kml/pushpin/blue-pushpin.png"}},
{"type":"Feature","geometry":{"type":"Point","coordinates":[-78.51443135264283,-6.969698782041044,0]},"properties":{"name":"Comedor","styleUrl":"#msn_blue-pushpin10","icon-scale":1.1,"icon-offset":[20,2],"icon-offset-units":["pixels","pixels"],"icon":"http://maps.google.com/mapfiles/kml/pushpin/blue-pushpin.png"}},
{"type":"Feature","geometry":{"type":"Point","coordinates":[-78.51433078941147,-6.969769827922683,0]},"properties":{"name":"Ferreyros","styleUrl":"#msn_blue-pushpin10","icon-scale":1.1,"icon-offset":[20,2],"icon-offset-units":["pixels","pixels"],"icon":"http://maps.google.com/mapfiles/kml/pushpin/blue-pushpin.png"}},
{"type":"Feature","geometry":{"type":"Point","coordinates":[-78.5167360012964,-6.969820871778713,0]},"properties":{"name":"Bechtel","styleUrl":"#msn_blue-pushpin10","icon-scale":1.1,"icon-offset":[20,2],"icon-offset-units":["pixels","pixels"],"icon":"http://maps.google.com/mapfiles/kml/pushpin/blue-pushpin.png"}},
{"type":"Feature","geometry":{"type":"Point","coordinates":[-78.5149401700072,-6.970845867181136,0]},"properties":{"name":"Llantas","styleUrl":"#msn_blue-pushpin10","icon-scale":1.1,"icon-offset":[20,2],"icon-offset-units":["pixels","pixels"],"icon":"http://maps.google.com/mapfiles/kml/pushpin/blue-pushpin.png"}},
{"type":"Feature","geometry":{"type":"Point","coordinates":[-78.51608225212061,-6.97044781809958,0]},"properties":{"name":"PM","styleUrl":"#msn_blue-pushpin10","icon-scale":1.1,"icon-offset":[20,2],"icon-offset-units":["pixels","pixels"],"icon":"http://maps.google.com/mapfiles/kml/pushpin/blue-pushpin.png"}},
{"type":"Feature","geometry":{"type":"Point","coordinates":[-78.49913184036681,-6.981499554225497,0]},"properties":{"name":"Ex Almacén","styleUrl":"#msn_blue-pushpin10","icon-scale":1.1,"icon-offset":[20,2],"icon-offset-units":["pixels","pixels"],"icon":"http://maps.google.com/mapfiles/kml/pushpin/blue-pushpin.png"}},
{"type":"Feature","geometry":{"type":"Point","coordinates":[-78.49829654148627,-6.981355249054811,0]},"properties":{"name":"Planta de Carbón PPL","styleUrl":"#msn_blue-pushpin10","icon-scale":1.1,"icon-offset":[20,2],"icon-offset-units":["pixels","pixels"],"icon":"http://maps.google.com/mapfiles/kml/pushpin/blue-pushpin.png"}},
{"type":"Feature","geometry":{"type":"Point","coordinates":[-78.49947592744971,-6.981917836236419,0]},"properties":{"name":"Control Room","styleUrl":"#msn_blue-pushpin10","icon-scale":1.1,"icon-offset":[20,2],"icon-offset-units":["pixels","pixels"],"icon":"http://maps.google.com/mapfiles/kml/pushpin/blue-pushpin.png"}}
]}